{
    "ID7523": {
        "routeId": "3201",
        "stopId": "7523",
        "position": "1",
        "name": "CRI Deck",
        "latitude": 35.30935,
        "longitude": -80.74416667,
        "id": "7523",
        "userId": "1053",
        "radius": 50,
        "routeName": "Silver",
        "routeShortname": "",
        "routeGroupId": 0
    },
    "ID7525": {
        "routeId": "3201",
        "stopId": "7525",
        "position": "4",
        "name": "Duke Centennial Hall",
        "latitude": 35.31224722,
        "longitude": -80.74166667,
        "id": "7525",
        "userId": "1053",
        "radius": 50,
        "routeName": "Silver",
        "routeShortname": "",
        "routeGroupId": 0
    },
    "ID7527": {
        "routeId": "3201",
        "stopId": "7527",
        "position": "6",
        "name": "EPIC South",
        "latitude": 35.31,
        "longitude": -80.74194444,
        "id": "7527",
        "userId": "1053",
        "radius": 50,
        "routeName": "Silver",
        "routeShortname": "",
        "routeGroupId": 0
    },
    "ID7528": {
        "routeId": "3201",
        "stopId": "7528",
        "position": "7",
        "name": "Athletics Complex East",
        "latitude": 35.307369865,
        "longitude": -80.739830199,
        "id": "7528",
        "userId": "1053",
        "radius": 50,
        "routeName": "Silver",
        "routeShortname": "",
        "routeGroupId": 0
    },
    "ID7530": {
        "routeId": "26294",
        "stopId": "7530",
        "position": "2",
        "name": "Student Union East",
        "latitude": 35.30805556,
        "longitude": -80.73277778,
        "id": "7530",
        "userId": "1053",
        "radius": 50,
        "routeName": "Niner Paratransit",
        "routeShortname": "NPT",
        "routeGroupId": 0
    },
    "ID7501": {
        "routeId": "16380",
        "stopId": "7501",
        "position": "9",
        "name": "Auxiliary Services",
        "latitude": 35.30798734,
        "longitude": -80.730352882,
        "id": "7501",
        "userId": "1053",
        "radius": 50,
        "routeName": "Route Green",
        "routeShortname": "Green",
        "routeGroupId": 0
    },
    "ID7532": {
        "routeId": "16380",
        "stopId": "7532",
        "position": "25",
        "name": "Student Health North",
        "latitude": 35.31055556,
        "longitude": -80.72916667,
        "id": "7532",
        "userId": "1053",
        "radius": 50,
        "routeName": "Route Green",
        "routeShortname": "Green",
        "routeGroupId": 0
    },
    "ID7533": {
        "routeId": "26308",
        "stopId": "7533",
        "position": "4",
        "name": "Martin Hall",
        "latitude": 35.31027778,
        "longitude": -80.72666667,
        "id": "7533",
        "userId": "1053",
        "radius": 50,
        "routeName": "Shopping Shuttle",
        "routeShortname": "",
        "routeGroupId": 0
    },
    "ID7534": {
        "routeId": "3201",
        "stopId": "7534",
        "position": "16",
        "name": "Lot 6",
        "latitude": 35.308847,
        "longitude": -80.725169,
        "id": "7534",
        "userId": "1053",
        "radius": 50,
        "routeName": "Silver",
        "routeShortname": "",
        "routeGroupId": 0
    },
    "ID7535": {
        "routeId": "3201",
        "stopId": "7535",
        "position": "17",
        "name": "Lot 5A",
        "latitude": 35.30722222,
        "longitude": -80.72527778,
        "id": "7535",
        "userId": "1053",
        "radius": 50,
        "routeName": "Silver",
        "routeShortname": "",
        "routeGroupId": 0
    },
    "ID7536": {
        "routeId": "3201",
        "stopId": "7536",
        "position": "19",
        "name": "East Deck 2",
        "latitude": 35.306365,
        "longitude": -80.726849,
        "id": "7536",
        "userId": "1053",
        "radius": 50,
        "routeName": "Silver",
        "routeShortname": "",
        "routeGroupId": 0
    },
    "ID7512": {
        "routeId": "31969",
        "stopId": "7512",
        "position": "4",
        "name": "Fretwell North",
        "latitude": 35.30739,
        "longitude": -80.72931,
        "id": "7512",
        "userId": "1053",
        "radius": 50,
        "routeName": "Expanded Housing",
        "routeShortname": "HRL",
        "routeGroupId": 0
    },
    "ID7513": {
        "routeId": "3201",
        "stopId": "7513",
        "position": "22",
        "name": "Science Building",
        "latitude": 35.308101005,
        "longitude": -80.730234865,
        "id": "7513",
        "userId": "1053",
        "radius": 50,
        "routeName": "Silver",
        "routeShortname": "",
        "routeGroupId": 0
    },
    "ID7514": {
        "routeId": "31969",
        "stopId": "7514",
        "position": "5",
        "name": "Student Union West",
        "latitude": 35.30813611,
        "longitude": -80.73277778,
        "id": "7514",
        "userId": "1053",
        "radius": 50,
        "routeName": "Expanded Housing",
        "routeShortname": "HRL",
        "routeGroupId": 0
    },
    "ID7537": {
        "routeId": "3201",
        "stopId": "7537",
        "position": "26",
        "name": "Athletics Complex West",
        "latitude": 35.3075,
        "longitude": -80.73972222,
        "id": "7537",
        "userId": "1053",
        "radius": 50,
        "routeName": "Silver",
        "routeShortname": "",
        "routeGroupId": 0
    },
    "ID7538": {
        "routeId": "3201",
        "stopId": "7538",
        "position": "27",
        "name": "EPIC North",
        "latitude": 35.309383154,
        "longitude": -80.741234492,
        "id": "7538",
        "userId": "1053",
        "radius": 50,
        "routeName": "Silver",
        "routeShortname": "",
        "routeGroupId": 0
    },
    "ID7539": {
        "routeId": "3201",
        "stopId": "7539",
        "position": "28",
        "name": "Grigg Hall",
        "latitude": 35.31083333,
        "longitude": -80.74138889,
        "id": "7539",
        "userId": "1053",
        "radius": 50,
        "routeName": "Silver",
        "routeShortname": "",
        "routeGroupId": 0
    },
    "ID15405": {
        "routeId": "3201",
        "stopId": "15405",
        "position": "29",
        "name": "Motorsports",
        "latitude": 35.31284,
        "longitude": -80.74101,
        "id": "15405",
        "userId": "1053",
        "radius": 50,
        "routeName": "Silver",
        "routeShortname": "",
        "routeGroupId": 0
    },
    "ID7540": {
        "routeId": "3201",
        "stopId": "7540",
        "position": "31",
        "name": "Portal West",
        "latitude": 35.311106352,
        "longitude": -80.743085324,
        "id": "7540",
        "userId": "1053",
        "radius": 50,
        "routeName": "Silver",
        "routeShortname": "",
        "routeGroupId": 0
    },
    "ID8277": {
        "routeId": "3406",
        "stopId": "8277",
        "position": "1",
        "name": "Charter start",
        "latitude": 35.308106119,
        "longitude": -80.732820822,
        "id": "8277",
        "userId": "1053",
        "radius": 198,
        "routeName": "Charter",
        "routeShortname": "Charter",
        "routeGroupId": 0
    },
    "ID8278": {
        "routeId": "3406",
        "stopId": "8278",
        "position": "2",
        "name": "Charter end",
        "latitude": 35.308132323,
        "longitude": -80.732772658,
        "id": "8278",
        "userId": "1053",
        "radius": 217,
        "routeName": "Charter",
        "routeShortname": "Charter",
        "routeGroupId": 0
    },
    "ID8276": {
        "routeId": "16380",
        "stopId": "8276",
        "position": "1",
        "name": "FM/PPS",
        "latitude": 35.311624885,
        "longitude": -80.730350714,
        "id": "8276",
        "userId": "1053",
        "radius": 50,
        "routeName": "Route Green",
        "routeShortname": "Green",
        "routeGroupId": 0
    },
    "ID8568": {
        "routeId": "22939",
        "stopId": "8568",
        "position": "5",
        "name": "North Deck",
        "latitude": 35.3135,
        "longitude": -80.73189,
        "id": "8568",
        "userId": "1053",
        "radius": 50,
        "routeName": "Football North",
        "routeShortname": "",
        "routeGroupId": 0
    },
    "ID7542": {
        "routeId": "22939",
        "stopId": "7542",
        "position": "6",
        "name": "Light Rail West",
        "latitude": 35.311946629,
        "longitude": -80.733450671,
        "id": "7542",
        "userId": "1053",
        "radius": 50,
        "routeName": "Football North",
        "routeShortname": "",
        "routeGroupId": 0
    },
    "ID7543": {
        "routeId": "16380",
        "stopId": "7543",
        "position": "5",
        "name": "Belk Hall South",
        "latitude": 35.31027778,
        "longitude": -80.73611111,
        "id": "7543",
        "userId": "1053",
        "radius": 50,
        "routeName": "Route Green",
        "routeShortname": "Green",
        "routeGroupId": 0
    },
    "ID7519": {
        "routeId": "16380",
        "stopId": "7519",
        "position": "10",
        "name": "Fretwell South",
        "latitude": 35.30694444,
        "longitude": -80.72944444,
        "id": "7519",
        "userId": "1053",
        "radius": 50,
        "routeName": "Route Green",
        "routeShortname": "Green",
        "routeGroupId": 0
    },
    "ID7520": {
        "routeId": "16380",
        "stopId": "7520",
        "position": "11",
        "name": "Cato Hall South",
        "latitude": 35.305,
        "longitude": -80.72833333,
        "id": "7520",
        "userId": "1053",
        "radius": 50,
        "routeName": "Route Green",
        "routeShortname": "Green",
        "routeGroupId": 0
    },
    "ID7521": {
        "routeId": "16380",
        "stopId": "7521",
        "position": "12",
        "name": "Robinson Hall South",
        "latitude": 35.30361111,
        "longitude": -80.72944444,
        "id": "7521",
        "userId": "1053",
        "radius": 50,
        "routeName": "Route Green",
        "routeShortname": "Green",
        "routeGroupId": 0
    },
    "ID7544": {
        "routeId": "16380",
        "stopId": "7544",
        "position": "14",
        "name": "Reese West",
        "latitude": 35.304453196,
        "longitude": -80.732767051,
        "id": "7544",
        "userId": "1053",
        "radius": 50,
        "routeName": "Route Green",
        "routeShortname": "Green",
        "routeGroupId": 0
    },
    "ID7548": {
        "routeId": "16380",
        "stopId": "7548",
        "position": "15",
        "name": "Cone Deck",
        "latitude": 35.30433,
        "longitude": -80.73458,
        "id": "7548",
        "userId": "1053",
        "radius": 50,
        "routeName": "Route Green",
        "routeShortname": "Green",
        "routeGroupId": 0
    },
    "ID15431": {
        "routeId": "16380",
        "stopId": "15431",
        "position": "17",
        "name": "Alumni Way East",
        "latitude": 35.302508661,
        "longitude": -80.737559067,
        "id": "15431",
        "userId": "1053",
        "radius": 50,
        "routeName": "Route Green",
        "routeShortname": "Green",
        "routeGroupId": 0
    },
    "ID7545": {
        "routeId": "31969",
        "stopId": "7545",
        "position": "3",
        "name": "South Village Deck",
        "latitude": 35.301067073,
        "longitude": -80.735858307,
        "id": "7545",
        "userId": "1053",
        "radius": 50,
        "routeName": "Expanded Housing",
        "routeShortname": "HRL",
        "routeGroupId": 0
    },
    "ID7546": {
        "routeId": "22940",
        "stopId": "7546",
        "position": "6",
        "name": "Gage Undergraduate Admissions Center",
        "latitude": 35.302026116,
        "longitude": -80.73274879,
        "id": "7546",
        "userId": "1053",
        "radius": 50,
        "routeName": "Football South",
        "routeShortname": "",
        "routeGroupId": 0
    },
    "ID7510": {
        "routeId": "16380",
        "stopId": "7510",
        "position": "20",
        "name": "Robinson Hall North",
        "latitude": 35.30333333,
        "longitude": -80.72944444,
        "id": "7510",
        "userId": "1053",
        "radius": 50,
        "routeName": "Route Green",
        "routeShortname": "Green",
        "routeGroupId": 0
    },
    "ID7511": {
        "routeId": "22940",
        "stopId": "7511",
        "position": "7",
        "name": "Cato Hall North",
        "latitude": 35.305,
        "longitude": -80.72805556,
        "id": "7511",
        "userId": "1053",
        "radius": 50,
        "routeName": "Football South",
        "routeShortname": "",
        "routeGroupId": 0
    },
    "ID73541": {
        "routeId": "22939",
        "stopId": "73541",
        "position": "4",
        "name": "Lot 26/Student Tailgate",
        "latitude": 35.312356919,
        "longitude": -80.731879846,
        "id": "73541",
        "userId": "1053",
        "radius": 50,
        "routeName": "Football North",
        "routeShortname": "",
        "routeGroupId": 0
    },
    "ID32704": {
        "routeId": "22940",
        "stopId": "32704",
        "position": "3",
        "name": "Football Stadium/Gate 1",
        "latitude": 35.309064,
        "longitude": -80.740328,
        "id": "32704",
        "userId": "1053",
        "radius": 15,
        "routeName": "Football South",
        "routeShortname": "",
        "routeGroupId": 0
    },
    "ID15436": {
        "routeId": "22940",
        "stopId": "15436",
        "position": "4",
        "name": "West Deck South",
        "latitude": 35.305038516,
        "longitude": -80.737140263,
        "id": "15436",
        "userId": "1053",
        "radius": 50,
        "routeName": "Football South",
        "routeShortname": "",
        "routeGroupId": 0
    },
    "ID7522": {
        "routeId": "26308",
        "stopId": "7522",
        "position": "1",
        "name": "Levine Hall West",
        "latitude": 35.302067,
        "longitude": -80.732963,
        "id": "7522",
        "userId": "1053",
        "radius": 50,
        "routeName": "Shopping Shuttle",
        "routeShortname": "",
        "routeGroupId": 0
    },
    "ID7503": {
        "routeId": "26308",
        "stopId": "7503",
        "position": "2",
        "name": "Hunt Hall",
        "latitude": 35.301245,
        "longitude": -80.73553,
        "id": "7503",
        "userId": "1053",
        "radius": 50,
        "routeName": "Shopping Shuttle",
        "routeShortname": "",
        "routeGroupId": 0
    },
    "ID7516": {
        "routeId": "26308",
        "stopId": "7516",
        "position": "3",
        "name": "Light Rail East",
        "latitude": 35.31177,
        "longitude": -80.73317,
        "id": "7516",
        "userId": "1053",
        "radius": 50,
        "routeName": "Shopping Shuttle",
        "routeShortname": "",
        "routeGroupId": 0
    },
    "ID84435": {
        "routeId": "26308",
        "stopId": "84435",
        "position": "5",
        "name": "Patel Brothers",
        "latitude": 35.294934,
        "longitude": -80.751104,
        "id": "84435",
        "userId": "1053",
        "radius": 15,
        "routeName": "Shopping Shuttle",
        "routeShortname": "",
        "routeGroupId": 0
    },
    "ID84436": {
        "routeId": "26308",
        "stopId": "84436",
        "position": "6",
        "name": "Target",
        "latitude": 35.293043,
        "longitude": -80.745866,
        "id": "84436",
        "userId": "1053",
        "radius": 15,
        "routeName": "Shopping Shuttle",
        "routeShortname": "",
        "routeGroupId": 0
    },
    "ID84437": {
        "routeId": "26308",
        "stopId": "84437",
        "position": "7",
        "name": "Harris Teeter",
        "latitude": 35.296567,
        "longitude": -80.738436,
        "id": "84437",
        "userId": "1053",
        "radius": 15,
        "routeName": "Shopping Shuttle",
        "routeShortname": "",
        "routeGroupId": 0
    },
    "ID120459": {
        "routeId": "31969",
        "stopId": "120459",
        "position": "1",
        "name": "Sonesta",
        "latitude": 35.307445,
        "longitude": -80.753291,
        "id": "120459",
        "userId": "1053",
        "radius": 50,
        "routeName": "Expanded Housing",
        "routeShortname": "HRL",
        "routeGroupId": 0
    },
    "ID120460": {
        "routeId": "31969",
        "stopId": "120460",
        "position": "2",
        "name": "Holiday Inn",
        "latitude": 35.305658,
        "longitude": -80.753185,
        "id": "120460",
        "userId": "1053",
        "radius": 50,
        "routeName": "Expanded Housing",
        "routeShortname": "HRL",
        "routeGroupId": 0
    }
}